<?xml version="1.0" encoding="UTF-8"?><kml xmlns="http://www.opengis.net/kml/2.2"><Document><Placemark>
<name>Alberta</name>
<description><![CDATA[
  
]]></description>
<Point>
  <coordinates>-76.885933,44.101000</coordinates>
</Point>
</Placemark>
<Placemark>
<name>Aloha</name>
<description><![CDATA[
  55 ft down near Nine Mile Point, Kingston, Ontario. Adjacent to the wreck Effie Mae. Two-masted schooner barge. Length 173ft, 521 gross tons. Built 1888, foundered while under tow of the CW Chamberlain in 1913. This wreck has a mooring maintained by <a href="http://powkingston.org" target="_new" >Preserve Our Wrecks Kingston</a>.
]]></description>
<Point>
  <coordinates>-76.568150,44.163050</coordinates>
</Point>
</Placemark>
<Placemark>
<name>Anglin Bay wrecks</name>
<description><![CDATA[
  Several hulls visible above the surface in low-water conditons.
]]></description>
<Point>
  <coordinates>-76.477375,44.236898</coordinates>
</Point>
</Placemark>
<Placemark>
<name>Annie Falconer</name>
<description><![CDATA[
  95 ft down near False Duck Island between Kingston, Ontario and Point Petre, Ontario.  Sank in a Storm 1904 en-route to Picton, Ontario. One crew member perished of exposure upon reaching Amherst Island. This wreck has a mooring maintained by <a href="http://powkingston.org" target="_new" >Preserve Our Wrecks Kingston</a>.
]]></description>
<Point>
  <coordinates>-76.801667,43.968300</coordinates>
</Point>
</Placemark>
<Placemark>
<name>Atlasco</name>
<description><![CDATA[
  
]]></description>
<Point>
  <coordinates>-76.983333,43.893883</coordinates>
</Point>
</Placemark>
<Placemark>
<name>Augustus</name>
<description><![CDATA[
  
]]></description>
<Point>
  <coordinates>-76.558300,44.196200</coordinates>
</Point>
</Placemark>
<Placemark>
<name>Barge in Collins Bay</name>
<description><![CDATA[
  
]]></description>
<Point>
  <coordinates>-76.616592,44.230810</coordinates>
</Point>
</Placemark>
<Placemark>
<name>Bow Rider</name>
<description><![CDATA[
  
]]></description>
<Point>
  <coordinates>-76.610000,44.477583</coordinates>
</Point>
</Placemark>
<Placemark>
<name>China</name>
<description><![CDATA[
  
]]></description>
<Point>
  <coordinates>-76.772367,43.972183</coordinates>
</Point>
</Placemark>
<Placemark>
<name>City of Sheboygan</name>
<description><![CDATA[
  100 ft down off Amherst Island, ON. This 135'x27'x10', three masted schooner was built in 1871. On Sept. 25, 1915, she sank with her cargo of coal in a violent storm. She took the lives of her 5 crew members with her. She sits upright on a hard bottom in 100' of water off of Amherst Island. Masts, rigging, blocks deadeyes etc. adorn this beautiful, well preserved wreck.  This wreck has a mooring maintained by <a href="http://powkingston.org" target="_new" >Preserve Our Wrecks Kingston</a>.
]]></description>
<Point>
  <coordinates>-76.734467,44.075967</coordinates>
</Point>
</Placemark>
<Placemark>
<name>Cobourg</name>
<description><![CDATA[
  
]]></description>
<Point>
  <coordinates>-76.827883,44.135017</coordinates>
</Point>
</Placemark>
<Placemark>
<name>Comet</name>
<description><![CDATA[
  65-90 ft. A double side-paddlewheel steamer, it sank on May 15,1861 after a collision with the American schooner 'Exchange'. The bow and stern have collapsed but the massive sidewheels are still intact and stand upright rising 25FT above the lakebed. The deck is getting rather flimsy and even experienced divers should think twice about penetrating below decks. This is a beautiful wreck, and it's easy to imagine the splendour that was, when this ship was first introduced to the great lakes.  This wreck has a mooring maintained by <a href="http://powkingston.org" target="_new" >Preserve Our Wrecks Kingston</a>.
]]></description>
<Point>
  <coordinates>-76.584500,44.139167</coordinates>
</Point>
</Placemark>
<Placemark>
<name>Cornwall</name>
<description><![CDATA[
  Steel double-paddlewheeler, 70 ft down. Scuttled in the Amherst Island graveyard in 1931. The Cornwall makes for an easy, pleasant dive, with plenty to see. She is over 170' long and 27' wide, and still has her huge paddlewheels in fairly decent shape. This wreck has a mooring maintained by <a href="http://powkingston.org" target="_new" >Preserve Our Wrecks Kingston</a>.
]]></description>
<Point>
  <coordinates>-76.619200,44.136300</coordinates>
</Point>
</Placemark>
<Placemark>
<name>Douglas</name>
<description><![CDATA[
  This wreck has a mooring maintained by <a href="http://powkingston.org" target="_new" >Preserve Our Wrecks Kingston</a>.
]]></description>
<Point>
  <coordinates>-76.604833,44.016967</coordinates>
</Point>
</Placemark>
<Placemark>
<name>Dupont Dredge</name>
<description><![CDATA[
  
]]></description>
<Point>
  <coordinates>-76.538850,44.205400</coordinates>
</Point>
</Placemark>
<Placemark>
<name>Effie Mae</name>
<description><![CDATA[
  55 feet down. A dive trawler, scuttled in 1993 for a diving attraction.  Adjacent to the the wreck "Aloha". This wreck has a mooring maintained by <a href="http://powkingston.org" target="_new" >Preserve Our Wrecks Kingston</a>.
]]></description>
<Point>
  <coordinates>-76.568200,44.163083</coordinates>
</Point>
</Placemark>
<Placemark>
<name>Fabiola</name>
<description><![CDATA[
  55 feet down, 2-masted schooner, 95ft x 22ft, built 1852, sank October 1900
]]></description>
<Point>
  <coordinates>-76.781387,43.953529</coordinates>
</Point>
</Placemark>
<Placemark>
<name>Frontenac</name>
<description><![CDATA[
  This wreck has a mooring maintained by <a href="http://powkingston.org" target="_new" >Preserve Our Wrecks Kingston</a>.
]]></description>
<Point>
  <coordinates>-76.602017,44.018717</coordinates>
</Point>
</Placemark>
<Placemark>
<name>Garden Island Wrecks</name>
<description><![CDATA[
  
]]></description>
<Point>
  <coordinates>-76.459522,44.201589</coordinates>
</Point>
</Placemark>
<Placemark>
<name>George A Marsh</name>
<description><![CDATA[
  80 ft down.  Three masted schooner (135 ft) built 1882, sunk 1917. This wreck has a mooring maintained by <a href="http://powkingston.org" target="_new" >Preserve Our Wrecks Kingston</a>.
]]></description>
<Point>
  <coordinates>-76.602800,44.125800</coordinates>
</Point>
</Placemark>
<Placemark>
<name>George T. Davie</name>
<description><![CDATA[
  This wreck has a mooring maintained by <a href="http://powkingston.org" target="_new" >Preserve Our Wrecks Kingston</a>.
]]></description>
<Point>
  <coordinates>-76.566700,44.100000</coordinates>
</Point>
</Placemark>
<Placemark>
<name>Glendora</name>
<description><![CDATA[
  Steamer, 70-feet down.  Scuttled in the Amherst Island Graveyard real name unknown. Intact double deck hull with large a prop and rudder.  This wreck has a mooring maintained by <a href="http://powkingston.org" target="_new" >Preserve Our Wrecks Kingston</a>.
]]></description>
<Point>
  <coordinates>-76.633300,44.133300</coordinates>
</Point>
</Placemark>
<Placemark>
<name>HMS Montreal (supposedly)</name>
<description><![CDATA[
  Wreck "discovered" in summer 2008 and pretentiously claimed to be from the war of 1812, to much press fanfare.
]]></description>
<Point>
  <coordinates>-76.460517,44.223100</coordinates>
</Point>
</Placemark>
<Placemark>
<name>Henrey</name>
<description><![CDATA[
  
]]></description>
<Point>
  <coordinates>-75.758383,44.832350</coordinates>
</Point>
</Placemark>
<Placemark>
<name>Hilda</name>
<description><![CDATA[
  Deep, 250 feet.
]]></description>
<Point>
  <coordinates>-76.826583,44.135066</coordinates>
</Point>
</Placemark>
<Placemark>
<name>Horace Taber</name>
<description><![CDATA[
  
]]></description>
<Point>
  <coordinates>-76.537583,44.167083</coordinates>
</Point>
</Placemark>
<Placemark>
<name>Jodrey</name>
<description><![CDATA[
  
]]></description>
<Point>
  <coordinates>-75.934217,44.316667</coordinates>
</Point>
</Placemark>
<Placemark>
<name>Johnson</name>
<description><![CDATA[
  
]]></description>
<Point>
  <coordinates>-76.558000,44.124833</coordinates>
</Point>
</Placemark>
<Placemark>
<name>K.G.H.</name>
<description><![CDATA[
  Charted wreck off Kingston General Hospital.  100' long, 24' wide, still in great shape.
]]></description>
<Point>
  <coordinates>-76.491010,44.218720</coordinates>
</Point>
</Placemark>
<Placemark>
<name>K.P.H.</name>
<description><![CDATA[
  Nickname for an unnamed wreck (The Waterlily?) in 65ft of water off Kingston Psychiatric Hospital. A wooden steamer with a length of about 135 feet.  Hull is still intact. This wreck has a mooring maintained by <a href="http://powkingston.org" target="_new" >Preserve Our Wrecks Kingston</a>.
]]></description>
<Point>
  <coordinates>-76.524750,44.207467</coordinates>
</Point>
</Placemark>
<Placemark>
<name>KYC wreck</name>
<description><![CDATA[
  
]]></description>
<Point>
  <coordinates>-76.480217,44.219483</coordinates>
</Point>
</Placemark>
<Placemark>
<name>Katie Eccles</name>
<description><![CDATA[
  
]]></description>
<Point>
  <coordinates>-76.743500,44.010300</coordinates>
</Point>
</Placemark>
<Placemark>
<name>Londonderry</name>
<description><![CDATA[
  258 ft down
]]></description>
<Point>
  <coordinates>-76.826917,44.136033</coordinates>
</Point>
</Placemark>
<Placemark>
<name>Louis</name>
<description><![CDATA[
  
]]></description>
<Point>
  <coordinates>-76.559517,44.114750</coordinates>
</Point>
</Placemark>
<Placemark>
<name>Lusitania</name>
<description><![CDATA[
  
]]></description>
<Point>
  <coordinates>-76.615250,44.144917</coordinates>
</Point>
</Placemark>
<Placemark>
<name>Manola</name>
<description><![CDATA[
  The front half of this steel steamer foundered in a storm while under tow on December 3, 1918. Built in 1890, both sections of her hull were enroute to Montreal to be rejoined for World War I service. Eleven lives were lost. The bow section lies upside down in 40'-80' of water on the rocky floor of Lake Ontario.
]]></description>
<Point>
  <coordinates>-76.768733,43.903683</coordinates>
</Point>
</Placemark>
<Placemark>
<name>Maple Glen</name>
<description><![CDATA[
  She was scuttled in 1925. Depth 80', Length 250'. This wreck has a mooring maintained by <a href="http://powkingston.org" target="_new" >Preserve Our Wrecks Kingston</a>.
]]></description>
<Point>
  <coordinates>-76.619500,44.144817</coordinates>
</Point>
</Placemark>
<Placemark>
<name>Mark 1</name>
<description><![CDATA[
  
]]></description>
<Point>
  <coordinates>-76.528417,44.201917</coordinates>
</Point>
</Placemark>
<Placemark>
<name>Med</name>
<description><![CDATA[
  
]]></description>
<Point>
  <coordinates>-76.525467,44.184717</coordinates>
</Point>
</Placemark>
<Placemark>
<name>Monkey Wrench</name>
<description><![CDATA[
  
]]></description>
<Point>
  <coordinates>-76.624567,44.144167</coordinates>
</Point>
</Placemark>
<Placemark>
<name>Munson</name>
<description><![CDATA[
  49-110 ft. Steam dredge barge that sank while under tow in 1890. This wreck has a mooring maintained by <a href="http://powkingston.org" target="_new" >Preserve Our Wrecks Kingston</a>.
]]></description>
<Point>
  <coordinates>-76.607700,44.208800</coordinates>
</Point>
</Placemark>
<Placemark>
<name>Olive Branch</name>
<description><![CDATA[
  Depth: 100 ft. 92 foot Schooner, built 1871, Sunk 1880.
]]></description>
<Point>
  <coordinates>-76.737817,43.931767</coordinates>
</Point>
</Placemark>
<Placemark>
<name>Pen Shoal</name>
<description><![CDATA[
  
]]></description>
<Point>
  <coordinates>-76.525650,44.203533</coordinates>
</Point>
</Placemark>
<Placemark>
<name>Prince Regent and Psyche</name>
<description><![CDATA[
  Depth: 60ft. Freighter, scuttled 1929, length 200ft.  This is an approximate location.
]]></description>
<Point>
  <coordinates>-76.450939,44.231425</coordinates>
</Point>
</Placemark>
<Placemark>
<name>Queen Mary</name>
<description><![CDATA[
  210' Steamer, 70-feet down.  Scuttled in the Amherst Island Graveyard. Real name unknown.  This wreck has a mooring maintained by <a href="http://powkingston.org" target="_new" >Preserve Our Wrecks Kingston</a>.
]]></description>
<Point>
  <coordinates>-76.615350,44.144800</coordinates>
</Point>
</Placemark>
<Placemark>
<name>R.H. Rae</name>
<description><![CDATA[
  Depth: 110ft. Schooner, built 1857, Sunk 1858, length: 136ft
]]></description>
<Point>
  <coordinates>-76.841917,43.883917</coordinates>
</Point>
</Placemark>
<Placemark>
<name>Simco (?)</name>
<description><![CDATA[
  
]]></description>
<Point>
  <coordinates>-76.554500,44.107967</coordinates>
</Point>
</Placemark>
<Placemark>
<name>Stacked Hulls</name>
<description><![CDATA[
  Approx 200ft, 3 Wooden Steamer Hulls stacked on each other
]]></description>
<Point>
  <coordinates>-76.524750,44.209383</coordinates>
</Point>
</Placemark>
<Placemark>
<name>Terry’s Tug</name>
<description><![CDATA[
  70ft Wooden tug, 90 ft down.  This wreck has a mooring maintained by <a href="http://powkingston.org" target="_new" >Preserve Our Wrecks Kingston</a>.
]]></description>
<Point>
  <coordinates>-76.634700,44.213000</coordinates>
</Point>
</Placemark>
<Placemark>
<name>Titanic</name>
<description><![CDATA[
  Unidentified wooden steamer. Likely scuttled in 1925 or 1936. Locals call her the Titanic because of her size. Mostly intact hull. Depth 70'. Length 230'. This wreck has a mooring maintained by <a href="http://powkingston.org" target="_new" >Preserve Our Wrecks Kingston</a>.
]]></description>
<Point>
  <coordinates>-76.621500,44.143300</coordinates>
</Point>
</Placemark>
<Placemark>
<name>Tom’s Wreck</name>
<description><![CDATA[
  
]]></description>
<Point>
  <coordinates>-76.558117,44.108667</coordinates>
</Point>
</Placemark>
<Placemark>
<name>Varona</name>
<description><![CDATA[
  
]]></description>
<Point>
  <coordinates>-76.526300,44.203983</coordinates>
</Point>
</Placemark>
<Placemark>
<name>William Jamieson</name>
<description><![CDATA[
  76 ft down. This wreck has a mooring maintained by <a href="http://powkingston.org" target="_new" >Preserve Our Wrecks Kingston</a>.
]]></description>
<Point>
  <coordinates>-76.793750,44.147750</coordinates>
</Point>
</Placemark>
<Placemark>
<name>Wolfe Islander II</name>
<description><![CDATA[
  40-85 ft down.  This wreck has a mooring maintained by <a href="http://powkingston.org" target="_new" >Preserve Our Wrecks Kingston</a>.
]]></description>
<Point>
  <coordinates>-76.416500,44.225967</coordinates>
</Point>
</Placemark>
</Document></kml>